City_ID,City,Lat,Lng,Max Temp,Humidity,Cloudiness,Wind Speed,Country,Date
0,waingapu,-9.6567,120.2641,295.92,87,scattered clouds,2.73,ID,1690658079
1,port elizabeth,-33.918,25.5701,287.33,52,broken clouds,10.51,ZA,1690657724
2,edinburgh of the seven seas,-37.0676,-12.3116,287.84,88,overcast clouds,8.03,SH,1690657601
3,puerto natales,-51.7236,-72.4875,278.87,85,light rain,8.51,CL,1690657599
4,nikolayevsk-on-amure,53.1406,140.73,287.21,98,overcast clouds,1.69,RU,1690657646
5,grytviken,-54.2811,-36.5092,274.23,97,snow,10.3,GS,1690657594
6,wailua homesteads,22.0669,-159.378,300.39,85,light rain,6.69,US,1690657602
7,adamstown,-25.066,-130.1015,292.11,57,few clouds,10.57,PN,1690657609
8,karaton,-6.3424,106.1045,295.55,88,overcast clouds,0.15,ID,1690658084
9,zhangye,38.9342,100.4517,298.09,40,clear sky,3.62,CN,1690657485
10,praia da vitoria,38.7333,-27.0667,300.29,78,scattered clouds,2.0,PT,1690657505
11,mar del plata,-38.0023,-57.5575,289.23,69,clear sky,8.75,AR,1690657612
12,whangarei,-35.7317,174.3239,281.27,88,broken clouds,1.34,NZ,1690657810
13,machico,32.7,-16.7667,300.38,76,few clouds,5.14,PT,1690658085
14,kapa'a,22.0752,-159.319,301.14,85,light rain,6.69,US,1690657776
15,yellowknife,62.456,-114.3525,294.74,42,overcast clouds,4.23,CA,1690657607
16,shenjiamen,29.9576,122.298,300.71,85,light rain,7.35,CN,1690658086
17,saudarkrokur,65.7461,-19.6394,283.84,85,overcast clouds,2.43,IS,1690657829
18,ushuaia,-54.8,-68.3,279.96,81,moderate rain,9.26,AR,1690657599
19,essaouira,31.5125,-9.77,298.87,80,clear sky,7.2,MA,1690658087
20,port-aux-francais,-49.35,70.2167,275.63,60,overcast clouds,8.81,TF,1690657608
21,ulaangom,49.9811,92.0667,291.63,49,clear sky,2.39,MN,1690657797
22,bethel,41.3712,-73.414,305.12,69,scattered clouds,3.09,US,1690657595
23,vieste,41.8825,16.175,299.21,61,clear sky,1.43,IT,1690658087
24,carnarvon,-24.8667,113.6333,288.94,73,clear sky,6.85,AU,1690657621
25,saipan,15.1355,145.701,299.54,89,clear sky,2.06,MP,1690657627
26,qaqortoq,60.7167,-46.0333,280.88,76,scattered clouds,1.45,GL,1690657646
27,vadso,70.0744,29.7487,284.64,96,light rain,10.04,NO,1690657720
28,bouarfa,32.53,-1.95,310.14,10,broken clouds,3.62,MA,1690658089
29,ko pha ngan,9.7578,100.0291,299.07,77,overcast clouds,7.99,TH,1690658089
30,bredasdorp,-34.5322,20.0403,282.75,81,scattered clouds,6.92,ZA,1690657622
31,taoudenni,22.6783,-3.9836,316.12,9,few clouds,5.92,ML,1690658090
32,villa gesell,-37.2639,-56.973,288.74,66,few clouds,8.02,AR,1690657554
33,waitangi,-43.9535,-176.5597,282.49,72,overcast clouds,10.71,NZ,1690657598
34,nabire,-3.3667,135.4833,297.67,91,overcast clouds,1.87,ID,1690657896
35,newnham,-41.3833,147.1333,285.55,91,overcast clouds,12.35,AU,1690657537
36,lillehammer,61.1146,10.4674,289.52,82,light rain,1.48,NO,1690658091
37,ascension,30.2169,-90.9001,309.86,46,clear sky,1.54,US,1690657546
38,kokopo,-4.352,152.2633,297.78,88,few clouds,1.63,PG,1690658091
39,avarua,-21.2078,-159.775,297.18,94,light rain,4.12,CK,1690657594
40,west island,-12.1568,96.8225,298.14,78,broken clouds,9.26,CC,1690657601
41,kapuskasing,49.4169,-82.4331,293.71,45,broken clouds,3.23,CA,1690657830
42,albany,42.6001,-73.9662,302.13,75,broken clouds,0.45,US,1690657434
43,mossel bay,-34.1831,22.146,284.11,85,light rain,13.92,ZA,1690657506
44,shizuoka,34.9769,138.3831,297.74,77,clear sky,1.41,JP,1690658093
45,alexandria,31.2156,29.9553,299.45,61,clear sky,6.02,EG,1690657922
46,paragominas,-2.9667,-47.4833,305.27,45,overcast clouds,2.57,BR,1690658093
47,revda,56.801,59.9303,289.83,79,clear sky,0.85,RU,1690658093
48,stanley,54.868,-1.6985,289.69,75,few clouds,5.14,GB,1690657600
49,udachny,66.4167,112.4,292.29,48,clear sky,1.33,RU,1690657319
50,northam,51.0333,-4.2167,290.59,82,overcast clouds,8.95,GB,1690657723
51,georgetown,5.4112,100.3354,300.11,94,few clouds,0.0,MY,1690657389
52,broken hill,-31.95,141.4333,284.31,52,clear sky,3.25,AU,1690657352
53,port mathurin,-19.6833,63.4167,296.64,76,broken clouds,6.15,MU,1690657600
54,aasiaat,68.7098,-52.8699,275.98,92,overcast clouds,3.3,GL,1690657398
55,margaret river,-33.95,115.0667,286.92,75,overcast clouds,4.95,AU,1690657597
56,jiazi,22.8779,116.067,300.54,86,light rain,1.15,CN,1690658095
57,huayin,34.5675,110.0921,297.12,90,broken clouds,1.62,CN,1690658096
58,karratha,-20.7377,116.8463,292.72,35,broken clouds,4.06,AU,1690657607
59,hasaki,35.7333,140.8333,299.43,93,clear sky,4.68,JP,1690657743
60,hami,42.8,93.45,301.73,24,overcast clouds,7.1,CN,1690657550
61,severo-yeniseyskiy,60.3725,93.0408,288.48,93,overcast clouds,1.56,RU,1690657731
62,dudinka,69.4058,86.1778,291.83,86,broken clouds,2.06,RU,1690657742
63,ilulissat,69.2167,-51.1,278.16,87,fog,2.06,GL,1690657618
64,coquimbo,-29.9533,-71.3436,287.0,88,overcast clouds,4.12,CL,1690657679
65,ulanhot,46.0833,122.0833,294.22,75,clear sky,1.45,CN,1690658098
66,vorkuta,67.5,64.0,286.64,86,few clouds,1.92,RU,1690657620
67,thompson,55.7435,-97.8558,297.24,46,smoke,2.57,CA,1690657598
68,kavaratti,10.5669,72.642,301.33,77,few clouds,7.0,IN,1690657530
69,iskateley,67.6803,53.1512,292.12,74,scattered clouds,5.61,RU,1690657606
70,blackmans bay,-43.0167,147.3167,288.56,60,scattered clouds,7.18,AU,1690657593
71,swift current,50.2834,-107.8014,296.35,33,clear sky,3.48,CA,1690657851
72,iqaluit,63.7506,-68.5145,280.21,76,overcast clouds,3.69,CA,1690657621
73,kodiak,57.79,-152.4072,287.88,88,overcast clouds,3.6,US,1690657623
74,carqueiranne,43.0953,6.073,301.65,89,clear sky,2.57,FR,1690658101
75,songyuan,45.1171,124.8568,295.62,96,few clouds,6.44,CN,1690658102
76,san luis,-33.295,-66.3356,296.03,21,overcast clouds,3.8,AR,1690657874
77,isafjordur,66.0755,-23.124,282.85,82,broken clouds,2.51,IS,1690657702
78,geraldton,-28.7667,114.6,288.38,94,overcast clouds,3.09,AU,1690657610
79,anadyr,64.75,177.4833,287.43,82,light rain,3.0,RU,1690657676
80,papatowai,-46.5619,169.4708,280.76,82,overcast clouds,1.69,NZ,1690657608
81,emmett,43.8735,-116.4993,305.97,19,overcast clouds,0.45,US,1690658104
82,akrehamn,59.2667,5.1833,290.6,82,broken clouds,3.09,NO,1690658104
83,chita,52.0333,113.55,288.09,93,scattered clouds,1.0,RU,1690657497
84,whitehorse,60.7161,-135.0538,294.58,46,few clouds,4.12,CA,1690657544
85,talnakh,69.4865,88.3972,292.52,80,light rain,2.37,RU,1690657681
86,aykhal,66.0,111.5,288.1,65,few clouds,1.75,RU,1690657603
87,sandnessjoen,66.0217,12.6316,288.44,90,broken clouds,3.55,NO,1690657644
88,colonia,50.9333,6.95,294.18,83,light rain,3.07,DE,1690657637
89,hilo,19.7297,-155.09,300.9,72,scattered clouds,1.54,US,1690657794
90,ribeira grande,38.5167,-28.7,299.14,78,few clouds,7.2,PT,1690657608
91,al jawf,29.5,38.75,305.87,14,clear sky,3.79,SA,1690657758
92,san andres,12.5847,-81.7006,305.16,70,few clouds,5.66,CO,1690658107
93,east london,-33.0153,27.9116,290.08,45,broken clouds,8.9,ZA,1690657631
94,la huacana,18.9667,-101.8167,306.41,46,scattered clouds,1.87,MX,1690658107
95,thunder bay,48.4001,-89.3168,296.1,43,broken clouds,2.06,CA,1690657364
96,hamilton,39.1834,-84.5333,305.25,63,few clouds,5.14,US,1690657696
97,melfort,52.8667,-104.6177,295.22,33,broken clouds,3.6,CA,1690658108
98,chilliwack,49.1747,-121.9443,297.68,62,few clouds,2.06,CA,1690658108
99,tralee,52.2704,-9.7026,287.72,88,light rain,7.42,IE,1690657670
100,yamada,39.4667,141.95,296.96,79,scattered clouds,2.11,JP,1690658109
101,serowe,-22.3833,26.7167,292.65,28,clear sky,3.65,BW,1690658109
102,quelimane,-17.8786,36.8883,296.12,88,clear sky,5.36,MZ,1690657522
103,klyuchi,52.2667,79.1667,293.31,89,light rain,4.16,RU,1690657700
104,ati,13.2154,18.3353,307.79,34,overcast clouds,3.14,TD,1690658110
105,kirkwall,58.9848,-2.9587,288.18,88,overcast clouds,4.12,GB,1690658110
106,invercargill,-46.4,168.35,276.49,92,overcast clouds,1.34,NZ,1690657601
107,muravlenko,63.7898,74.523,288.56,95,light rain,5.98,RU,1690658111
108,fale old settlement,-9.3852,-171.2468,301.21,75,light rain,6.95,TK,1690657685
109,ouadda,8.0777,22.4007,295.31,89,scattered clouds,0.67,CF,1690658111
110,san patricio,28.017,-97.5169,310.12,39,broken clouds,6.35,US,1690657691
111,masterton,-40.9597,175.6575,275.42,95,clear sky,0.81,NZ,1690657644
112,berdigestyakh,62.0989,126.6992,284.93,73,scattered clouds,2.13,RU,1690658112
113,bol,13.4586,14.7147,302.19,64,few clouds,2.49,TD,1690658112
114,tanjung pandan,-2.75,107.65,298.68,78,overcast clouds,4.13,ID,1690658112
115,montrose,38.4166,-108.2673,299.11,15,overcast clouds,3.57,US,1690658112
116,tazacorte,28.629,-17.9293,297.69,83,few clouds,6.69,ES,1690657760
117,jolo,6.05,121.0167,298.86,91,overcast clouds,2.15,PH,1690657796
118,jamestown,42.097,-79.2353,295.92,94,overcast clouds,8.75,US,1690657601
119,saint-louis du nord,19.9333,-72.7167,303.33,70,overcast clouds,7.21,HT,1690658113
120,high river,50.5834,-113.8687,298.24,58,clear sky,4.4,CA,1690658113
121,bilibino,68.0546,166.4372,280.55,94,overcast clouds,1.61,RU,1690657597
122,khash,28.2211,61.2158,299.74,50,scattered clouds,4.2,IR,1690658114
123,arkhangel'sk,64.5401,40.5433,291.2,61,overcast clouds,1.64,RU,1690658114
124,edd,13.9297,41.6925,306.23,63,broken clouds,4.45,ER,1690658114
125,kutum,14.2,24.6667,300.72,48,light rain,6.61,SD,1690658114
126,vilyuchinsk,52.9306,158.4028,287.3,95,overcast clouds,0.95,RU,1690658115
127,saint-joseph,-21.3667,55.6167,293.36,77,few clouds,5.35,RE,1690657547
128,callao,-12.0667,-77.15,296.31,60,scattered clouds,3.09,PE,1690657604
129,khovd,48.0056,91.6419,291.13,37,overcast clouds,3.07,MN,1690658115
130,aleksandrovsk,59.158,57.5624,291.37,92,clear sky,1.13,RU,1690658116
131,yeraliyev,43.2,51.65,299.53,51,clear sky,7.25,KZ,1690657959
132,pacific grove,36.6177,-121.9166,301.62,87,mist,4.92,US,1690657637
133,pemangkat,1.1667,108.9667,298.89,85,overcast clouds,3.5,ID,1690657994
134,milagro,42.2386,-1.764,299.52,58,clear sky,8.87,ES,1690658117
135,wajir,1.7471,40.0573,300.99,50,broken clouds,7.75,KE,1690657879
136,tolanaro,-25.0319,46.9987,292.98,85,clear sky,5.49,MG,1690657697
137,timaru,-44.4,171.25,277.08,96,clear sky,2.18,NZ,1690657874
138,sittwe,20.15,92.9,300.44,91,overcast clouds,5.47,MM,1690658123
139,port lincoln,-34.7333,135.8667,286.9,84,clear sky,7.17,AU,1690657346
140,itacarambi,-15.1022,-44.0919,305.38,24,overcast clouds,1.64,BR,1690658124
141,ust-nera,64.5667,143.2,283.86,94,light rain,2.46,RU,1690657554
142,mwinilunga,-11.7358,24.4293,291.13,30,clear sky,0.54,ZM,1690658125
143,flying fish cove,-10.4217,105.6791,296.97,88,broken clouds,5.66,CX,1690658125
144,san antonio de pale,-1.4014,5.6325,295.9,83,overcast clouds,5.97,GQ,1690658126
145,ghadamis,30.1337,9.5007,313.69,9,clear sky,4.07,LY,1690657575
146,prince george,53.9166,-122.753,296.07,57,clear sky,1.34,CA,1690657792
147,kingston,17.997,-76.7936,308.28,55,broken clouds,2.24,JM,1690657606
148,petrovsk-zabaykal'skiy,51.273,108.843,291.73,75,overcast clouds,1.9,RU,1690658127
149,sisimiut,66.9395,-53.6735,280.41,80,overcast clouds,5.21,GL,1690658127
150,kalabo,-14.97,22.6814,294.55,24,scattered clouds,0.41,ZM,1690657559
151,mburucuya,-28.0454,-58.2245,294.6,31,clear sky,3.23,AR,1690658127
152,ebon,4.582,168.6964,301.58,78,light rain,4.49,MH,1690657794
153,mahibadhoo,3.7833,72.9667,301.43,74,overcast clouds,5.28,MV,1690657628
154,mount darwin,-16.7725,31.5838,289.08,51,clear sky,0.74,ZW,1690658128
155,jayapura,-2.5333,140.7,297.81,92,overcast clouds,2.74,ID,1690657649
156,mount isa,-20.7333,139.5,284.02,93,few clouds,0.0,AU,1690657704
157,burang,30.25,81.1667,283.58,89,overcast clouds,2.14,CN,1690657974
158,antalaha,-14.9003,50.2788,294.14,74,overcast clouds,3.74,MG,1690658129
159,amga,60.8953,131.9608,284.81,77,clear sky,0.75,RU,1690657798
160,saynshand,44.8824,110.1163,301.6,29,clear sky,3.78,MN,1690657571
161,nouadhibou,20.931,-17.0347,298.14,65,few clouds,3.09,MR,1690657696
162,kenora,49.8167,-94.4337,294.69,40,broken clouds,4.63,CA,1690658130
163,olyokminsk,60.3736,120.4264,289.21,86,broken clouds,1.14,RU,1690658130
164,tiksi,71.6872,128.8694,275.52,88,clear sky,1.89,RU,1690657593
165,tadine,-21.55,167.8833,291.74,69,overcast clouds,3.03,NC,1690657605
166,benjamin aceval,-24.9667,-57.5667,298.23,42,clear sky,1.02,PY,1690658131
167,minas de marcona,-15.2119,-75.1103,293.01,54,clear sky,4.48,PE,1690657948
168,miquelon,47.0975,-56.3814,292.15,97,overcast clouds,8.29,PM,1690657679
169,ribeira brava,32.65,-17.0667,300.38,77,clear sky,1.09,PT,1690658131
170,alofi,-19.0595,-169.9187,295.31,87,light rain,8.95,NU,1690657779
171,tura,25.5198,90.2201,297.24,95,overcast clouds,1.57,IN,1690657604
172,aral,40.5156,81.2636,297.13,44,clear sky,5.48,CN,1690657520
173,kuqa,41.7278,82.9364,297.84,48,overcast clouds,3.61,CN,1690657733
174,atafu village,-8.5421,-172.5159,301.08,72,overcast clouds,5.22,TK,1690657681
175,petropavlovsk-kamchatsky,53.0452,158.6483,286.48,100,broken clouds,0.0,RU,1690657643
176,lebu,-37.6167,-73.65,287.49,87,overcast clouds,3.08,CL,1690657640
177,hamma bouziane,36.412,6.596,304.58,58,few clouds,3.6,DZ,1690658133
178,choyr,46.3611,108.3611,296.48,43,clear sky,3.07,MN,1690658133
179,bubaque,11.2833,-15.8333,298.86,91,heavy intensity rain,7.16,GW,1690658133
180,olonkinbyen,70.9221,-8.7187,279.32,90,overcast clouds,1.09,SJ,1690657600
181,puerto baquerizo moreno,-0.9,-89.6,300.7,69,broken clouds,6.69,EC,1690657944
182,st. john's,47.5649,-52.7093,297.41,78,light intensity shower rain,10.29,CA,1690657492
183,hawaiian paradise park,19.5933,-154.9731,300.78,74,scattered clouds,1.54,US,1690657611
184,montellano,36.9973,-5.5345,307.11,25,clear sky,4.69,ES,1690658134
185,san pedro pochutla,15.7333,-96.4667,306.88,55,overcast clouds,3.77,MX,1690657560
186,nagqu,31.5,92.0,278.83,87,overcast clouds,1.63,CN,1690657874
187,saint-philippe,-21.3585,55.7679,291.92,79,broken clouds,5.36,RE,1690658135
188,batticaloa,7.7102,81.6924,300.48,75,broken clouds,1.82,LK,1690658135
189,cabo san lucas,22.8909,-109.9124,309.76,55,few clouds,3.09,MX,1690657539
190,lihue,21.9789,-159.3672,300.73,81,heavy intensity rain,6.69,US,1690657668
191,saint-henri,46.6921,-71.0671,293.76,67,overcast clouds,2.47,CA,1690658136
192,dawson creek,55.7666,-120.2362,297.36,40,clear sky,3.6,CA,1690658136
193,tafuna,-14.3358,-170.72,298.91,85,moderate rain,5.18,AS,1690658136
194,bath,51.3779,-2.3591,292.25,70,clear sky,6.51,GB,1690658013
195,longyearbyen,78.2186,15.6401,282.06,66,broken clouds,5.14,SJ,1690657397
196,celaru,44.05,24.1333,299.69,39,clear sky,0.89,RO,1690658137
197,beltran,-27.8291,-64.061,298.36,28,clear sky,6.36,AR,1690658137
198,morehead city,34.7229,-76.726,307.15,84,few clouds,7.72,US,1690657919
199,la passe,45.5549,-0.8967,295.28,80,clear sky,5.47,FR,1690657643
200,bandarbeyla,9.4942,50.8122,297.3,87,clear sky,13.2,SO,1690657876
201,kampong cham,11.9934,105.4635,299.28,81,overcast clouds,4.56,KH,1690658138
202,dauphin,51.1494,-100.0502,295.23,49,clear sky,4.12,CA,1690658138
203,haiku-pauwela,20.9219,-156.3051,301.16,59,few clouds,6.69,US,1690657712
204,san nicolas de bari,22.7844,-81.9133,309.13,41,broken clouds,1.4,CU,1690658139
205,jardim do serido,-6.5844,-36.7744,306.73,29,clear sky,5.96,BR,1690658139
206,lae,-6.7221,146.9847,296.81,90,overcast clouds,2.51,PG,1690658139
207,kangar,6.4414,100.1986,300.13,88,scattered clouds,2.04,MY,1690658139
208,puerto madero,14.7208,-92.4215,300.26,100,moderate rain,2.06,MX,1690658140
209,port alfred,-33.5906,26.891,287.14,74,few clouds,1.79,ZA,1690657612
210,afaahiti,-17.75,-149.2833,299.08,77,overcast clouds,10.43,PF,1690657688
211,shalkar,47.8288,59.6258,305.97,24,overcast clouds,2.1,KZ,1690658140
212,kirillov,59.863,38.3813,285.71,96,overcast clouds,0.68,RU,1690658140
213,belyayevka,51.3974,56.4096,299.28,38,overcast clouds,5.08,RU,1690658141
214,la chapelle-saint-luc,48.3173,4.0399,295.18,83,thunderstorm,2.06,FR,1690658141
215,puerto deseado,-47.7503,-65.8938,285.21,54,overcast clouds,14.46,AR,1690657780
216,naifaru,5.4444,73.3657,301.58,76,overcast clouds,6.62,MV,1690658141
217,san francisco de la paz,14.9,-86.2,302.99,97,light rain,0.82,HN,1690658142
218,hithadhoo,-0.6,73.0833,300.13,79,overcast clouds,4.99,MV,1690657651
219,al ghayzah,16.2079,52.176,299.83,81,light rain,4.37,YE,1690658142
220,queenstown,-31.8976,26.8753,280.87,68,overcast clouds,9.41,ZA,1690657747
221,novyy urgal,51.0736,132.5642,289.46,98,overcast clouds,0.8,RU,1690658142
222,mesyagutovo,55.5303,58.2528,292.44,69,clear sky,1.69,RU,1690658143
223,utrik,11.2278,169.8474,301.4,80,light rain,9.78,MH,1690657629
224,kidal,18.4411,1.4078,299.6,62,moderate rain,10.31,ML,1690658143
225,mukalla,14.5425,49.1242,303.82,64,light rain,4.49,YE,1690657806
226,gadzhiyevo,69.2551,33.3362,284.96,96,overcast clouds,2.45,RU,1690657695
227,pula,44.8683,13.8481,296.46,78,clear sky,0.0,HR,1690658144
228,el jadid,33.2549,-8.506,296.75,81,clear sky,5.32,MA,1690658144
229,punta arenas,-53.15,-70.9167,278.69,88,overcast clouds,4.5,CL,1690657618
230,kununurra,-15.7667,128.7333,293.14,77,broken clouds,0.0,AU,1690657972
231,codo,-4.4553,-43.8856,309.76,26,scattered clouds,2.05,BR,1690658144
232,cold lake,54.4502,-110.2017,294.12,52,broken clouds,3.09,CA,1690658145
233,sitka,57.0531,-135.33,290.09,77,few clouds,0.0,US,1690657784
234,brisas de zicatela,15.8369,-97.0419,306.44,55,overcast clouds,2.57,MX,1690658145
235,vordingborg,55.008,11.9106,293.7,67,overcast clouds,5.78,DK,1690658145
236,nchelenge,-9.3451,28.734,294.04,53,clear sky,1.19,ZM,1690658145
237,mount pearl,47.5166,-52.7813,296.95,78,light intensity shower rain,10.29,CA,1690657458
238,dzuunharaa,48.8523,106.4579,294.58,51,broken clouds,3.19,MN,1690658146
239,tulun,54.5611,100.5792,290.32,95,light rain,4.68,RU,1690658147
240,itamaraca,-7.7478,-34.8256,300.18,76,few clouds,3.67,BR,1690658148
241,ta`u,-14.2336,-169.5144,299.71,81,light rain,6.41,AS,1690657622
242,hunedoara,45.75,22.9,294.54,58,clear sky,1.9,RO,1690658148
243,newman,37.3138,-121.0208,307.34,10,clear sky,1.27,US,1690657693
244,tual,-5.6667,132.75,298.91,80,overcast clouds,9.45,ID,1690658149
245,tordera,41.6991,2.7189,301.86,90,clear sky,3.13,ES,1690658150
246,yuzhno-kurilsk,44.0306,145.8556,292.73,95,moderate rain,0.61,RU,1690658150
247,ancud,-41.8697,-73.8203,284.74,89,light rain,8.83,CL,1690658150
248,gao,16.6362,1.637,309.38,28,few clouds,2.67,ML,1690658151
249,kailua-kona,19.6406,-155.9956,301.13,75,clear sky,5.66,US,1690657866
250,tazovsky,67.4667,78.7,285.3,99,overcast clouds,3.97,RU,1690657528
251,tejen,37.3834,60.5054,305.73,14,clear sky,4.39,TM,1690657734
252,olinda,-8.0089,-34.8553,300.0,78,scattered clouds,6.17,BR,1690658152
253,nova sintra,14.8667,-24.7167,295.51,75,few clouds,7.82,CV,1690658152
254,manali,13.1667,80.2667,304.86,66,broken clouds,5.78,IN,1690658036
255,el aouinet,35.8669,7.8867,307.68,33,broken clouds,4.91,DZ,1690658153
256,kharp,66.8014,65.8081,287.94,78,clear sky,2.57,RU,1690658154
257,tobruk,32.0836,23.9764,299.43,78,clear sky,8.38,LY,1690658154
258,bestobe,52.4994,73.0975,294.72,61,few clouds,3.91,KZ,1690658154
259,floro,61.5996,5.0328,291.19,72,overcast clouds,2.57,NO,1690658154
260,kiffa,16.6166,-11.4045,297.46,82,heavy intensity rain,14.46,MR,1690658155
261,gaspe,48.8334,-64.4819,295.1,51,broken clouds,6.07,CA,1690657878
262,kangaroo flat,-36.8,144.25,277.77,57,clear sky,1.73,AU,1690658155
263,puerto ayora,-0.7393,-90.3518,304.13,88,overcast clouds,2.68,EC,1690657597
264,alfredo chaves,-20.635,-40.7497,294.73,91,overcast clouds,2.34,BR,1690658156
265,winschoten,53.1442,7.0347,292.69,89,clear sky,3.32,NL,1690658156
266,ormara,25.2088,64.6357,301.23,85,few clouds,6.92,PK,1690658156
267,margate,51.3813,1.3862,293.64,69,scattered clouds,2.68,GB,1690657477
268,egilsstadir,65.2653,-14.3948,283.1,87,scattered clouds,6.17,IS,1690657593
269,greymouth,-42.4667,171.2,277.15,89,few clouds,2.69,NZ,1690658158
270,cidreira,-30.1811,-50.2056,288.07,66,broken clouds,2.13,BR,1690657877
271,ponnani,10.767,75.9252,297.77,83,overcast clouds,4.5,IN,1690658160
272,anchorage,61.2181,-149.9003,288.68,95,moderate rain,1.54,US,1690657770
273,nar'yan-mar,67.6713,53.087,292.22,74,scattered clouds,5.61,RU,1690658161
274,happy valley-goose bay,53.3168,-60.3315,291.81,49,overcast clouds,2.49,CA,1690657699
275,bei'an,24.5399,109.533,299.33,89,overcast clouds,0.89,CN,1690658161
276,keflavik,64.0049,-22.5624,286.39,71,broken clouds,3.6,IS,1690657775
277,el calafate,-50.3408,-72.2768,277.36,93,scattered clouds,8.79,AR,1690657874
278,sylva,58.0348,56.7635,292.8,79,clear sky,1.19,RU,1690658162
279,kombissiri,12.0656,-1.3375,304.14,70,light rain,2.77,BF,1690658162
280,caleta de carquin,-11.0925,-77.6267,295.29,70,broken clouds,4.42,PE,1690657936
281,puerto lempira,15.2667,-83.7667,302.65,76,light rain,5.36,HN,1690658163
282,pariaman,-0.619,100.12,300.18,87,overcast clouds,1.46,ID,1690658163
283,fortuna,40.5982,-124.1573,293.67,75,broken clouds,4.12,US,1690658165
284,badger,64.8,-147.5333,293.08,81,haze,3.6,US,1690657819
285,kayangel,8.0823,134.7173,301.49,77,overcast clouds,6.14,PW,1690658165
286,ewo,-0.8725,14.8206,302.35,47,broken clouds,1.31,CG,1690657878
287,bayanhongor,46.7167,100.1167,292.68,28,overcast clouds,2.58,MN,1690658166
288,okhotsk,59.3833,143.3,286.2,97,overcast clouds,2.09,RU,1690658166
289,hachinohe,40.5,141.5,295.92,83,overcast clouds,3.33,JP,1690657958
290,lorengau,-2.0226,147.2712,300.51,77,overcast clouds,0.64,PG,1690657771
291,santiago de cao,-7.9589,-79.2392,296.22,73,fog,4.63,PE,1690658167
292,as sanad,34.4628,9.264,312.29,23,clear sky,4.42,TN,1690658168
293,rothenbach an der pegnitz,49.483,11.2412,295.01,69,clear sky,3.6,DE,1690658168
294,cockburn town,21.4612,-71.1419,305.13,62,scattered clouds,6.17,TC,1690657812
295,kasongo-lunda,-6.4667,16.8167,299.75,37,clear sky,0.73,CD,1690658169
296,oyama,36.3,139.8,302.92,73,few clouds,1.33,JP,1690658169
297,arraial do cabo,-22.9661,-42.0278,294.07,73,overcast clouds,2.57,BR,1690657717
298,palmer,42.1584,-72.3287,303.5,63,broken clouds,4.12,US,1690658130
299,coahuayana de hidalgo,18.7,-103.6583,308.7,48,clear sky,3.22,MX,1690657746
300,tofol,5.3248,163.0078,301.81,75,light rain,3.64,FM,1690658170
301,pindi gheb,33.2402,72.2661,304.43,61,broken clouds,3.48,PK,1690658170
302,okha,53.5739,142.9478,284.74,98,overcast clouds,4.33,RU,1690658171
303,weyburn,49.6668,-103.8511,296.27,38,few clouds,1.54,CA,1690658171
304,hermanus,-34.4187,19.2345,283.04,73,light rain,8.88,ZA,1690657740
305,banamba,13.55,-7.45,303.83,52,scattered clouds,3.22,ML,1690658173
306,nuuk,64.1835,-51.7216,280.1,83,overcast clouds,6.98,GL,1690657831
307,ialibu,-6.2821,143.9935,286.72,98,broken clouds,0.32,PG,1690658174
308,shingu,33.7333,135.9833,297.87,88,overcast clouds,1.33,JP,1690657912
309,porto torres,40.835,8.3972,299.25,72,clear sky,1.67,IT,1690658175
310,bratsk,56.1325,101.6142,292.42,79,light rain,0.99,RU,1690658175
311,ocean shores,46.9737,-124.1563,292.6,75,overcast clouds,5.66,US,1690658176
312,brookings,44.3114,-96.7984,299.34,50,clear sky,4.63,US,1690657880
313,ron phibun,8.1791,99.8542,297.96,94,broken clouds,2.4,TH,1690658176
314,qamdo,31.1667,97.2333,280.9,65,broken clouds,0.9,CN,1690657903
315,bellefonte,40.9134,-77.7783,301.38,69,broken clouds,5.66,US,1690658177
316,pingnan,23.5543,110.3976,299.5,92,broken clouds,0.24,CN,1690658177
317,laojunmiao,39.8333,97.7333,295.9,35,clear sky,2.78,CN,1690657606
318,la ronge,55.1001,-105.2842,297.27,35,smoke,5.14,CA,1690658178
319,pecos,31.4229,-103.4932,309.61,19,clear sky,2.57,US,1690658178
320,rongelap,11.1635,166.8941,301.5,80,light rain,9.93,MH,1690658178
321,saint croix,17.7397,-64.7388,303.4,66,clear sky,7.72,VI,1690658179
322,patu,-6.11,-37.6367,307.21,25,clear sky,4.04,BR,1690658180
323,klaksvik,62.2266,-6.589,287.66,98,overcast clouds,8.51,FO,1690658180
324,anantapur,14.6833,77.6,298.75,73,scattered clouds,8.5,IN,1690658180
325,vorgashor,67.5833,63.95,286.35,86,few clouds,1.93,RU,1690657749
326,guerrero negro,27.9769,-114.0611,300.68,47,clear sky,5.3,MX,1690657890
327,kirakira,-10.4544,161.9205,298.43,89,light rain,3.96,SB,1690657689
328,chernomorskoye,45.5039,32.6997,295.41,72,clear sky,4.53,UA,1690658181
329,angra do heroismo,38.65,-27.2167,300.49,83,scattered clouds,3.58,PT,1690658182
330,ixmiquilpan,20.4833,-99.2333,299.85,43,clear sky,5.22,MX,1690658182
331,bureya,49.8133,129.8131,289.87,97,broken clouds,1.62,RU,1690658182
332,raton,36.9034,-104.4391,305.34,26,few clouds,2.96,US,1690658183
333,new norfolk,-42.7826,147.0587,289.22,65,overcast clouds,6.76,AU,1690658183
334,mikuni,36.2171,136.1519,299.1,70,clear sky,3.52,JP,1690658183
335,tabou,4.423,-7.3528,298.28,84,light rain,3.18,CI,1690657751
336,yarmouth,41.7057,-70.2286,302.93,79,clear sky,5.66,US,1690658184
337,bo phloi,14.3236,99.5161,299.2,76,overcast clouds,2.81,TH,1690658184
338,manggar,-2.8833,108.2667,300.24,73,overcast clouds,6.83,ID,1690658185
339,clarksdale,34.2001,-90.5709,307.54,55,few clouds,3.6,US,1690658181
340,kenai,60.5544,-151.2583,288.23,95,light rain,1.54,US,1690657789
341,dunedin,-45.8742,170.5036,280.26,81,few clouds,0.45,NZ,1690658185
342,victorica,-36.2151,-65.4359,296.65,24,broken clouds,8.04,AR,1690657614
343,chak azam sahu,30.75,73.0333,304.56,60,clear sky,2.09,PK,1690658186
344,port saint john's,-31.6229,29.5448,291.87,66,light rain,6.46,ZA,1690657867
345,santa cruz,-17.8,-63.1667,299.85,44,few clouds,3.09,BO,1690658187
346,sinop,41.7711,34.8709,288.14,92,clear sky,1.03,TR,1690657599
347,terrace,54.5163,-128.6035,298.27,43,smoke,3.09,CA,1690658014
348,bardai,11.65,7.2333,300.0,64,overcast clouds,3.93,NG,1690658187
349,hammerfest,70.6634,23.6821,283.4,93,overcast clouds,5.14,NO,1690657876
350,linqiong,30.4159,103.4609,299.05,85,clear sky,1.32,CN,1690658188
351,livny,52.4253,37.6069,287.61,82,overcast clouds,3.09,RU,1690658188
352,bloomsburg,41.0037,-76.4549,304.88,70,overcast clouds,1.34,US,1690658189
353,halifax,44.6453,-63.5724,301.67,69,broken clouds,4.63,CA,1690658189
354,natal,-5.795,-35.2094,303.27,51,few clouds,6.17,BR,1690657543
355,leer,53.2316,7.461,293.14,90,clear sky,3.35,DE,1690657808
356,goseong,34.9763,128.3236,297.17,92,few clouds,1.15,KR,1690658190
357,okulovka,58.4008,33.2908,285.85,95,clear sky,2.03,RU,1690658190
358,sao vicente,-23.9631,-46.3919,293.25,26,overcast clouds,0.89,BR,1690657966
359,pisco,-13.7,-76.2167,294.18,73,clear sky,6.17,PE,1690657631
360,college,64.8569,-147.8028,293.12,77,smoke,3.6,US,1690657968
361,taro,-8.3862,115.28,294.18,95,overcast clouds,1.64,ID,1690657822
362,el granada,37.5027,-122.4694,303.19,69,mist,8.23,US,1690657756
363,carutapera,-1.195,-46.02,302.2,70,clear sky,4.52,BR,1690657812
364,robore,-18.3333,-59.75,303.17,39,clear sky,0.86,BO,1690657770
365,kormend,47.011,16.606,292.22,79,few clouds,0.14,HU,1690658192
366,selfoss,63.9331,-20.9971,287.62,72,overcast clouds,2.24,IS,1690658192
367,kinzan,36.1031,127.4889,296.32,90,broken clouds,0.97,KR,1690658193
368,kill devil hills,36.0307,-75.676,305.16,66,scattered clouds,8.75,US,1690657816
369,alaghsas,17.0187,8.0168,310.64,17,broken clouds,3.3,NE,1690657825
370,coyhaique,-45.5752,-72.0662,281.12,76,moderate rain,2.57,CL,1690658195
371,buka,40.8108,69.1986,300.11,19,clear sky,1.32,UZ,1690658195
372,laguna,38.421,-121.4238,308.03,32,clear sky,3.6,US,1690657931
373,labytnangi,66.6572,66.4183,287.68,78,clear sky,2.5,RU,1690658196
374,knysna,-34.0363,23.0471,284.5,90,moderate rain,12.37,ZA,1690658197
375,cidade velha,14.9167,-23.6167,300.41,65,scattered clouds,6.17,CV,1690658197
376,palikir - national government center,6.9248,158.1611,296.56,100,light rain,1.54,FM,1690657639
377,saldanha,-33.0117,17.9442,285.03,70,light rain,9.64,ZA,1690657767
378,sinabang,2.4803,96.3801,299.61,79,broken clouds,0.93,ID,1690657731
379,tocoa,15.6833,-86.0,301.94,90,light rain,0.54,HN,1690658198
380,eaton,42.6,-84.85,301.15,50,clear sky,3.6,US,1690658198
381,shancheng,34.7953,116.0817,298.36,95,overcast clouds,6.37,CN,1690658199
382,sabang,5.8933,95.3214,301.37,80,overcast clouds,10.41,ID,1690658199
383,serafimovskiy,54.4241,53.7964,294.19,63,scattered clouds,0.66,RU,1690658199
384,kargasok,59.0556,80.8572,289.5,82,overcast clouds,1.73,RU,1690657964
385,tevriz,57.509,72.4042,288.47,99,scattered clouds,2.0,RU,1690658200
386,oranjemund,-28.55,16.4333,284.47,77,light rain,2.89,NA,1690657798
387,pinotepa nacional,16.3167,-98.0167,308.48,43,clear sky,4.08,MX,1690658200
388,kalymnos,36.95,26.9833,300.89,57,clear sky,7.2,GR,1690658167
389,tshabong,-26.05,22.45,281.13,44,clear sky,6.38,BW,1690657898
390,dagua,3.6569,-76.6886,306.43,74,overcast clouds,2.34,CO,1690658201
391,khandyga,62.6667,135.6,284.78,63,broken clouds,0.42,RU,1690657611
392,kruisfontein,-34.0033,24.7314,285.27,53,overcast clouds,11.91,ZA,1690657630
393,thomson,33.4707,-82.5046,299.04,89,broken clouds,1.54,US,1690658202
394,itaguacu,-19.8019,-40.8556,297.46,74,overcast clouds,1.29,BR,1690658202
395,broome,42.2506,-75.833,299.91,81,overcast clouds,5.14,US,1690657997
396,oamaru,-45.0784,170.9801,276.14,86,clear sky,2.79,NZ,1690657911
397,thames,-37.1333,175.5333,280.34,93,broken clouds,0.65,NZ,1690658203
398,prince rupert,54.3161,-130.3201,287.2,94,mist,2.06,CA,1690657778
399,peniche,39.3558,-9.3811,296.64,85,clear sky,6.65,PT,1690657753
400,taunton,51.0211,-3.1047,292.3,69,few clouds,2.24,GB,1690658203
401,kasane,-17.8167,25.15,293.68,25,broken clouds,1.32,BW,1690658204
402,brandon,27.9378,-82.2859,307.75,74,light rain,3.09,US,1690658002
403,obihiro,42.9172,143.2044,296.13,85,light rain,2.09,JP,1690658206
404,eraan,9.0629,117.7016,299.84,75,overcast clouds,2.66,PH,1690657913
405,siem reap,13.5,104.0,300.01,83,light rain,2.22,KH,1690658206
406,mumbwa,-14.9783,27.0619,293.11,28,clear sky,1.75,ZM,1690658207
407,le vauclin,14.5452,-60.8388,305.18,62,broken clouds,6.69,MQ,1690658207
408,lusambo,-4.9667,23.45,299.78,33,clear sky,0.18,CD,1690658207
409,chibougamau,49.9168,-74.3659,288.45,54,broken clouds,2.73,CA,1690657748
410,shadipur julana,29.1333,76.4167,301.81,80,clear sky,1.94,IN,1690658208
411,ambon,-3.6954,128.1814,299.23,89,broken clouds,3.09,ID,1690658209
412,nuku'alofa,-21.1333,-175.2,284.34,100,few clouds,1.03,TO,1690658209
413,la calera,-31.3438,-64.3353,303.97,18,clear sky,3.6,AR,1690658209
414,bhimunipatnam,17.8833,83.4333,301.88,72,overcast clouds,3.12,IN,1690658209
415,rio grande,-32.035,-52.0986,289.21,67,overcast clouds,2.44,BR,1690657975
416,gangneung,37.7556,128.8961,300.46,72,few clouds,1.75,KR,1690658210
417,hadibu,12.65,54.0333,299.27,76,clear sky,7.9,YE,1690657915
418,havre,49.5833,0.3333,292.15,82,overcast clouds,6.17,FR,1690658210
419,crucecita,-28.95,-58.9833,294.67,32,clear sky,3.42,AR,1690657772
420,namibe,-15.1961,12.1522,290.75,70,clear sky,4.85,AO,1690658211
421,novaya igirma,57.1334,103.9112,291.98,77,overcast clouds,2.11,RU,1690658211
422,florence,43.7667,11.25,300.19,59,clear sky,1.54,IT,1690658106
423,novska,45.3406,16.9769,295.69,68,clear sky,1.33,HR,1690658211
424,balakovo,52.0278,47.8007,295.87,56,overcast clouds,3.47,RU,1690658145
425,constantia,44.1833,28.65,296.53,67,overcast clouds,5.56,RO,1690657680
426,pamandzi,-12.7967,45.2794,297.03,83,few clouds,2.57,YT,1690658212
427,ambagarh chauki,20.7833,80.7167,297.91,93,heavy intensity rain,3.09,IN,1690658212
428,lompoc,34.6391,-120.4579,308.71,62,few clouds,1.79,US,1690657983
429,fort bragg,35.139,-79.006,305.47,62,few clouds,4.63,US,1690657765
430,port-vila,-17.7338,168.3219,293.38,74,overcast clouds,5.72,VU,1690657793
431,saurimo,-9.6608,20.3916,295.31,23,clear sky,1.0,AO,1690658213
432,farafangana,-22.8167,47.8333,293.45,80,light rain,3.89,MG,1690658213
433,marsabit,2.3284,37.9899,294.06,55,overcast clouds,9.35,KE,1690658213
434,lahad datu,5.0268,118.327,298.33,81,overcast clouds,1.91,MY,1690658214
435,the bottom,17.6259,-63.2492,303.46,76,overcast clouds,7.98,BQ,1690658214
436,anloga,5.7947,0.8973,298.25,89,scattered clouds,4.78,GH,1690658214
437,susuman,62.7833,148.1667,283.17,76,overcast clouds,0.74,RU,1690657646
438,la palma,33.8464,-118.0467,312.87,66,broken clouds,4.12,US,1690658215
439,chegdomyn,51.1167,133.0167,289.46,98,moderate rain,0.58,RU,1690657626
440,lauro de freitas,-12.8944,-38.3272,300.16,74,scattered clouds,3.6,BR,1690658215
441,qarazhal,48.0078,70.7903,301.78,30,scattered clouds,2.92,KZ,1690658215
442,campbellton,48.0075,-66.6727,294.4,47,overcast clouds,5.09,CA,1690658215
443,tommot,58.9564,126.2925,286.1,91,clear sky,0.3,RU,1690657649
444,manokwari,-0.8667,134.0833,298.49,86,overcast clouds,0.28,ID,1690657898
445,hobyo,5.3505,48.5268,298.01,87,scattered clouds,9.79,SO,1690658221
446,wenchang,30.904,118.4887,297.09,96,light rain,2.23,CN,1690658221
447,chonchi,-42.6128,-73.8092,285.99,78,overcast clouds,4.71,CL,1690657354
448,kavieng,-2.5744,150.7967,300.47,78,clear sky,1.97,PG,1690658222
449,kaele,10.1092,14.4508,302.51,49,overcast clouds,0.53,CM,1690658222
450,rawson,-43.3002,-65.1023,292.11,34,scattered clouds,11.1,AR,1690657966
451,plastun,44.7561,136.2939,296.47,73,light rain,1.96,RU,1690657808
452,mejit,10.2753,170.8646,301.4,79,light rain,9.52,MH,1690657720
453,el carril,-25.0741,-65.4917,296.62,29,clear sky,2.42,AR,1690658223
454,collie,-33.3667,116.15,283.91,97,broken clouds,1.42,AU,1690658223
455,princeville,45.7668,-61.2985,297.93,65,few clouds,8.23,CA,1690658223
456,kunming,25.0389,102.7183,291.11,94,broken clouds,2.0,CN,1690658224
457,tsiombe,-25.3,45.4833,291.45,90,clear sky,2.27,MG,1690658224
458,la mure,44.9026,5.7866,292.56,94,moderate rain,1.65,FR,1690658224
459,kilkeel,54.062,-6.0031,289.79,81,scattered clouds,8.91,GB,1690658224
460,najran,17.4924,44.1277,306.06,14,overcast clouds,2.51,SA,1690657775
461,makokou,0.5738,12.8642,297.89,73,overcast clouds,1.02,GA,1690657957
462,bamboo flat,11.7,92.7167,302.2,79,mist,5.14,IN,1690657886
463,marathon,44.9,-89.7668,299.89,57,broken clouds,4.63,US,1690658225
464,mirny,62.5353,113.9611,287.12,75,overcast clouds,1.97,RU,1690657813
465,lospalos,-8.5186,127.0025,293.55,89,few clouds,2.65,TL,1690658226
466,miahuatlan de porfirio diaz,16.3333,-96.6,298.69,55,light rain,3.11,MX,1690658226
467,luganville,-15.5333,167.1667,295.17,74,overcast clouds,4.9,VU,1690658226
468,coruripe,-10.1256,-36.1756,298.38,83,few clouds,4.01,BR,1690658226
469,puerto carreno,6.189,-67.4859,305.14,62,scattered clouds,1.54,CO,1690658227
470,owen sound,44.5672,-80.9435,297.77,64,clear sky,2.68,CA,1690658044
471,buurhakaba,2.8026,44.0781,297.43,74,broken clouds,7.27,SO,1690658227
472,shurugwi,-19.6702,30.0059,289.01,32,clear sky,3.08,ZW,1690658227
473,pyhajarvi,67.0701,27.2176,285.88,97,light rain,3.06,FI,1690658227
474,al jahra',29.3375,47.6581,310.79,10,clear sky,5.5,KW,1690658228
475,dehloran,32.6941,47.2679,310.96,10,clear sky,3.13,IR,1690658228
476,kirensk,57.7853,108.1119,290.23,92,overcast clouds,1.62,RU,1690657801
477,roma,43.2128,-75.4557,295.9,94,heavy intensity rain,1.54,US,1690658228
478,tomatlan,19.9333,-105.25,308.78,42,clear sky,3.5,MX,1690658228
479,crane,31.3974,-102.3501,308.28,21,clear sky,5.77,US,1690657775
480,atherton,53.5237,-2.4935,291.64,70,overcast clouds,1.79,GB,1690658220
481,nemuro,43.3236,145.575,291.12,97,moderate rain,3.69,JP,1690658230
482,hassi messaoud,31.6804,6.0729,315.12,6,clear sky,3.51,DZ,1690657793
483,antsiranana,-12.2787,49.2917,295.7,68,clear sky,5.26,MG,1690658230
484,smithers,54.7804,-127.1743,298.3,36,clear sky,0.99,CA,1690657766
485,vanino,49.0869,140.2543,289.97,99,overcast clouds,0.7,RU,1690658230
486,kuytun,54.3419,101.5036,291.21,94,light rain,4.82,RU,1690658231
487,biscarrosse,44.3945,-1.1672,295.12,78,broken clouds,3.6,FR,1690658231
488,enewetak,11.3474,162.3373,300.18,88,heavy intensity rain,8.8,MH,1690657667
489,sarakhs,36.5449,61.1577,305.54,15,clear sky,4.67,IR,1690658231
490,nizhniy kuranakh,58.8353,125.4869,286.41,94,clear sky,0.65,RU,1690658231
491,porto de moz,-1.7483,-52.2383,306.47,48,overcast clouds,0.4,BR,1690658232
492,malvan,16.0667,73.4667,299.59,85,overcast clouds,5.9,IN,1690658232
493,weno,7.4515,151.8468,300.12,89,light rain,2.06,FM,1690658232
494,chui,-33.6971,-53.4616,284.75,63,overcast clouds,3.46,UY,1690658232
495,arno,60.1167,18.6333,292.47,62,broken clouds,2.62,SE,1690658233
496,toliara,-23.35,43.6667,291.74,71,clear sky,1.56,MG,1690658233
497,tuzha,57.6062,47.936,292.47,89,light rain,3.9,RU,1690658233
498,champerico,14.3,-91.9167,301.39,80,light rain,3.22,GT,1690657692
499,alice springs,-23.7,133.8833,285.9,100,fog,0.0,AU,1690658233
500,chunskiy,56.0815,99.6342,291.11,97,moderate rain,3.72,RU,1690658233
501,labrador city,52.9463,-66.9114,285.21,73,overcast clouds,3.69,CA,1690657720
502,virac,13.6333,124.2167,296.98,79,overcast clouds,5.87,PH,1690658234
503,da nang,16.0678,108.2208,301.14,89,scattered clouds,0.51,VN,1690658234
504,cam ranh,11.9214,109.1591,301.13,78,few clouds,4.12,VN,1690658234
505,okahao,-17.885,15.0667,288.19,30,few clouds,5.64,NA,1690658234
506,gassol,8.5333,10.4667,299.47,75,few clouds,2.35,NG,1690658235
507,aioun,16.6614,-9.6149,300.48,61,light rain,9.73,MR,1690658235
508,awjilah,29.1081,21.2869,306.25,23,clear sky,2.98,LY,1690658235
509,mamuju,-2.6748,118.8885,298.12,83,broken clouds,1.52,ID,1690658235
510,hluti,-27.2167,31.6167,294.17,34,clear sky,3.98,SZ,1690658235
511,guymon,36.6828,-101.4816,305.15,45,clear sky,4.12,US,1690658236
512,la roda,39.2167,-2.15,307.0,15,clear sky,4.45,ES,1690658236
513,puerto colombia,10.9878,-74.9547,308.2,74,overcast clouds,7.14,CO,1690658236
514,novyy turtkul',41.55,61.0167,298.1,20,clear sky,4.25,UZ,1690658236
515,constanta,44.1833,28.65,295.76,67,overcast clouds,5.56,RO,1690658237
516,paradip garh,20.3167,86.6167,302.61,81,overcast clouds,4.36,IN,1690658237
517,mizdah,31.4451,12.9801,309.42,13,clear sky,4.28,LY,1690657865
518,kulhudhuffushi,6.6221,73.07,301.31,77,broken clouds,6.95,MV,1690657919
519,faya-largeau,17.9257,19.1043,310.23,12,clear sky,4.4,TD,1690658237
520,petropavl,54.8753,69.1628,290.67,77,clear sky,3.2,KZ,1690658238
521,nicoya,10.1483,-85.452,304.14,68,light rain,0.17,CR,1690658238
522,codrington,-38.2667,141.9667,283.35,86,few clouds,7.78,AU,1690657645
523,linghai,41.1653,121.3667,297.28,96,overcast clouds,4.55,CN,1690658238
524,yigo village,13.5361,144.8886,298.77,92,clear sky,2.06,GU,1690658238
525,mahajanga,-15.7167,46.3167,295.06,54,clear sky,2.64,MG,1690657764
526,namie,37.4833,141.0,297.99,90,clear sky,1.65,JP,1690657983
527,zharkent,44.1628,80.0,295.94,31,clear sky,1.8,KZ,1690658239
528,remire-montjoly,4.9167,-52.2667,303.17,70,clear sky,6.17,GF,1690657826
529,cromer,52.9312,1.2989,294.16,67,clear sky,6.92,GB,1690658240
530,suez,29.9737,32.5263,300.76,59,clear sky,5.97,EG,1690658116
531,san jorge,-31.8962,-61.8598,293.62,35,clear sky,6.39,AR,1690658240
532,vanimo,-2.6741,141.3028,298.02,91,overcast clouds,0.49,PG,1690658241
533,alo,7.4178,6.7371,296.71,96,overcast clouds,1.57,NG,1690658241
534,karatau,43.1667,70.4667,298.41,28,clear sky,2.39,KZ,1690658241
535,vilyuysk,63.7553,121.6247,286.77,67,clear sky,1.7,RU,1690657997
536,qal'ah-ye shahr,35.5473,65.5676,292.28,44,overcast clouds,2.62,AF,1690658242
537,rokytne,51.2796,27.214,289.31,75,few clouds,1.08,UA,1690658242
538,eynesil,41.0645,39.1438,294.99,77,scattered clouds,2.27,TR,1690658242
539,leua,48.2156,18.6071,292.83,85,light rain,1.49,SK,1690658243
540,gongzhuling,43.5008,124.8198,296.72,87,overcast clouds,7.18,CN,1690658243
541,rengo,-34.4167,-70.8667,298.47,57,overcast clouds,1.08,CL,1690658244
542,kiunga,-6.1219,141.2906,295.29,99,overcast clouds,1.71,PG,1690658244
543,san pedro,14.35,121.0167,297.77,98,overcast clouds,0.0,PH,1690657805
544,kralendijk,12.15,-68.2667,304.14,70,broken clouds,7.72,BQ,1690657900
545,cabedelo,-6.9811,-34.8339,302.52,80,broken clouds,4.45,BR,1690657727
546,sault ste. marie,46.5168,-84.3333,296.46,49,clear sky,6.17,CA,1690657597
547,kuraymah,18.55,31.85,310.57,17,clear sky,3.37,SD,1690658245
548,arteche,12.2645,125.4048,300.03,82,moderate rain,4.06,PH,1690657733
549,horta,38.5333,-28.6333,298.72,80,few clouds,7.2,PT,1690657804
550,tucumcari,35.1717,-103.725,309.79,21,clear sky,4.12,US,1690658246
551,bequimao,-2.4489,-44.7825,305.33,50,clear sky,2.49,BR,1690658246
552,yangshuo,24.7808,110.4897,299.16,93,overcast clouds,0.68,CN,1690658247
553,giado,31.9582,12.0203,308.43,14,clear sky,3.09,LY,1690658247
554,aswan,24.0934,32.907,310.61,14,scattered clouds,9.02,EG,1690657701
555,howrah,22.5892,88.3103,302.15,94,haze,2.06,IN,1690657788
556,timimoun,29.2639,0.231,318.36,6,clear sky,1.54,DZ,1690658247
557,gaalkacyo,6.7697,47.4308,301.56,55,overcast clouds,9.39,SO,1690658248
558,bikenibeu village,1.3673,173.1241,301.13,89,light rain,2.57,KI,1690658248
559,tavsanli,39.5424,29.4987,291.41,50,clear sky,2.05,TR,1690658248
560,ingeniero guillermo n. juarez,-23.9,-61.85,299.61,34,clear sky,2.47,AR,1690658248
561,nishinoomote,30.7333,131.0,300.82,81,overcast clouds,5.66,JP,1690658249
562,ponta delgada,37.7333,-25.6667,297.55,83,few clouds,6.17,PT,1690658249
563,kilindoni,-7.9139,39.6668,297.54,75,clear sky,5.59,TZ,1690658249
564,nanpara,27.8667,81.5,301.3,83,overcast clouds,1.32,IN,1690658249
565,rhinelander,45.6366,-89.4121,298.01,50,scattered clouds,4.12,US,1690658211
566,vicuna,-30.0319,-70.7081,306.36,19,broken clouds,2.42,CL,1690658250
567,kamloops,50.6665,-120.3192,300.79,39,few clouds,1.54,CA,1690657974
568,island harbour,50.724,-1.2758,293.23,82,overcast clouds,2.24,GB,1690657947
569,ghat,24.9647,10.1728,309.27,11,overcast clouds,5.29,LY,1690657852
570,gobabis,-22.45,18.9667,278.55,56,clear sky,4.2,NA,1690658250
571,celica,-4.1167,-79.95,298.71,39,broken clouds,0.45,EC,1690658251
572,galliano,29.4422,-90.2992,309.26,49,clear sky,3.09,US,1690657722
573,papao,-17.75,-149.55,299.97,77,clear sky,11.66,PF,1690658251
574,brindisi,40.5833,17.6667,301.36,58,clear sky,1.62,IT,1690658251
575,monrovia,6.3005,-10.7969,300.02,81,overcast clouds,5.63,LR,1690658252
576,pandan,14.0453,124.1694,300.22,81,overcast clouds,4.49,PH,1690658252
577,sidi bennour,32.6524,-8.4277,300.85,45,clear sky,6.55,MA,1690658252
578,samfya,-11.3649,29.5565,293.89,34,clear sky,1.4,ZM,1690658252
579,rimouski,48.4488,-68.524,294.25,64,overcast clouds,5.17,CA,1690658253
580,hashtrud,37.4779,47.0508,297.47,49,overcast clouds,7.14,IR,1690658253
581,fort mcmurray,56.7268,-111.381,296.92,40,clear sky,2.57,CA,1690658124
582,oum hadjer,13.2954,19.6966,307.43,36,overcast clouds,2.33,TD,1690657960
583,kiruna,67.8557,20.2251,283.66,93,light rain,5.14,SE,1690657780
584,obama,35.4958,135.746,300.35,84,clear sky,3.53,JP,1690658253
585,malanje,-9.5402,16.341,296.99,23,clear sky,0.87,AO,1690658254
